{
"type": "FeatureCollection",
"crs": { "type": "name", "properties": { "name": "urn:ogc:def:crs:OGC:1.3:CRS84" } },
"features": [
{ "type": "Feature", "properties": { "id": "ITF4", "NUTS_ID": "ITF4", "LEVL_CODE": 2, "CNTR_CODE": "IT", "NAME_LATN": "Puglia", "NUTS_NAME": "Puglia", "FID": "ITF4", "tunit_code": "ITF4", "TOTAL": 94.0 }, "geometry": { "type": "Point", "coordinates": [ 16.619191776828075, 40.984562044159041 ] } },
{ "type": "Feature", "properties": { "id": "ITH3", "NUTS_ID": "ITH3", "LEVL_CODE": 2, "CNTR_CODE": "IT", "NAME_LATN": "Veneto", "NUTS_NAME": "Veneto", "FID": "ITH3", "tunit_code": "ITH3", "TOTAL": 237.0 }, "geometry": { "type": "Point", "coordinates": [ 11.840813638781976, 45.664623544698571 ] } },
{ "type": "Feature", "properties": { "id": "ITH4", "NUTS_ID": "ITH4", "LEVL_CODE": 2, "CNTR_CODE": "IT", "NAME_LATN": "Friuli-Venezia Giulia", "NUTS_NAME": "Friuli-Venezia Giulia", "FID": "ITH4", "tunit_code": "ITH4", "TOTAL": 99.0 }, "geometry": { "type": "Point", "coordinates": [ 13.051857111532286, 46.159911494380815 ] } },
{ "type": "Feature", "properties": { "id": "ITG2", "NUTS_ID": "ITG2", "LEVL_CODE": 2, "CNTR_CODE": "IT", "NAME_LATN": "Sardegna", "NUTS_NAME": "Sardegna", "FID": "ITG2", "tunit_code": "ITG2", "TOTAL": 165.0 }, "geometry": { "type": "Point", "coordinates": [ 9.030185579075834, 40.08696357262297 ] } },
{ "type": "Feature", "properties": { "id": "NL33", "NUTS_ID": "NL33", "LEVL_CODE": 2, "CNTR_CODE": "NL", "NAME_LATN": "Zuid-Holland", "NUTS_NAME": "Zuid-Holland", "FID": "NL33", "tunit_code": "NL33", "TOTAL": 455.0 }, "geometry": { "type": "Point", "coordinates": [ 4.484589802138552, 51.938051196930878 ] } },
{ "type": "Feature", "properties": { "id": "ITI2", "NUTS_ID": "ITI2", "LEVL_CODE": 2, "CNTR_CODE": "IT", "NAME_LATN": "Umbria", "NUTS_NAME": "Umbria", "FID": "ITI2", "tunit_code": "ITI2", "TOTAL": 38.0 }, "geometry": { "type": "Point", "coordinates": [ 12.490065997881088, 42.965766793741309 ] } },
{ "type": "Feature", "properties": { "id": "NL11", "NUTS_ID": "NL11", "LEVL_CODE": 2, "CNTR_CODE": "NL", "NAME_LATN": "Groningen", "NUTS_NAME": "Groningen", "FID": "NL11", "tunit_code": "NL11", "TOTAL": 253.0 }, "geometry": { "type": "Point", "coordinates": [ 6.741975312382234, 53.217439596717277 ] } },
{ "type": "Feature", "properties": { "id": "NL41", "NUTS_ID": "NL41", "LEVL_CODE": 2, "CNTR_CODE": "NL", "NAME_LATN": "Noord-Brabant", "NUTS_NAME": "Noord-Brabant", "FID": "NL41", "tunit_code": "NL41", "TOTAL": 102.0 }, "geometry": { "type": "Point", "coordinates": [ 5.183710168550133, 51.561004776840555 ] } },
{ "type": "Feature", "properties": { "id": "FR82", "NUTS_ID": "FR82", "LEVL_CODE": 2, "CNTR_CODE": "FR", "NAME_LATN": "Provence-Alpes-Côte d'Azur", "NUTS_NAME": "Provence-Alpes-Côte d'Azur", "FID": "FR82", "tunit_code": "FR82", "TOTAL": 116.0 }, "geometry": { "type": "Point", "coordinates": [ 6.055616254972189, 43.955972750017587 ] } },
{ "type": "Feature", "properties": { "id": "ITI4", "NUTS_ID": "ITI4", "LEVL_CODE": 2, "CNTR_CODE": "IT", "NAME_LATN": "Lazio", "NUTS_NAME": "Lazio", "FID": "ITI4", "tunit_code": "ITI4", "TOTAL": 0.0 }, "geometry": { "type": "Point", "coordinates": [ 12.766375692757363, 41.979862985847632 ] } },
{ "type": "Feature", "properties": { "id": "NL32", "NUTS_ID": "NL32", "LEVL_CODE": 2, "CNTR_CODE": "NL", "NAME_LATN": "Noord-Holland", "NUTS_NAME": "Noord-Holland", "FID": "NL32", "tunit_code": "NL32", "TOTAL": 108.0 }, "geometry": { "type": "Point", "coordinates": [ 4.91917627914092, 52.600426246481646 ] } },
{ "type": "Feature", "properties": { "id": "HR03", "NUTS_ID": "HR03", "LEVL_CODE": 2, "CNTR_CODE": "HR", "NAME_LATN": "Jadranska Hrvatska", "NUTS_NAME": "Jadranska Hrvatska", "FID": "HR03", "tunit_code": "HR03", "TOTAL": 0.0 }, "geometry": { "type": "Point", "coordinates": [ 15.613349142572421, 44.314607689633441 ] } },
{ "type": "Feature", "properties": { "id": "IE02", "NUTS_ID": "IE02", "LEVL_CODE": 2, "CNTR_CODE": "IE", "NAME_LATN": "Southern and Eastern", "NUTS_NAME": "Southern and Eastern", "FID": "IE02", "tunit_code": "IE02", "TOTAL": 366.0 }, "geometry": { "type": "Point", "coordinates": [ -8.071516896005745, 52.527702780983617 ] } },
{ "type": "Feature", "properties": { "id": "FI1C", "NUTS_ID": "FI1C", "LEVL_CODE": 2, "CNTR_CODE": "FI", "NAME_LATN": "Etelä-Suomi", "NUTS_NAME": "Etelä-Suomi", "FID": "FI1C", "tunit_code": "FI1C", "TOTAL": 388.0 }, "geometry": { "type": "Point", "coordinates": [ 25.275237796574487, 60.90833162954749 ] } },
{ "type": "Feature", "properties": { "id": "FR41", "NUTS_ID": "FR41", "LEVL_CODE": 2, "CNTR_CODE": "FR", "NAME_LATN": "Lorraine", "NUTS_NAME": "Lorraine", "FID": "FR41", "tunit_code": "FR41", "TOTAL": 115.0 }, "geometry": { "type": "Point", "coordinates": [ 6.142048036744625, 48.761975336610497 ] } },
{ "type": "Feature", "properties": { "id": "HU21", "NUTS_ID": "HU21", "LEVL_CODE": 2, "CNTR_CODE": "HU", "NAME_LATN": "Közép-Dunántúl", "NUTS_NAME": "Közép-Dunántúl", "FID": "HU21", "tunit_code": "HU21", "TOTAL": 222.0 }, "geometry": { "type": "Point", "coordinates": [ 18.132245316018594, 47.226994559943762 ] } },
{ "type": "Feature", "properties": { "id": "FR51", "NUTS_ID": "FR51", "LEVL_CODE": 2, "CNTR_CODE": "FR", "NAME_LATN": "Pays de la Loire", "NUTS_NAME": "Pays de la Loire", "FID": "FR51", "tunit_code": "FR51", "TOTAL": 0.0 }, "geometry": { "type": "Point", "coordinates": [ -0.815655306683013, 47.478056826816669 ] } },
{ "type": "Feature", "properties": { "id": "HU31", "NUTS_ID": "HU31", "LEVL_CODE": 2, "CNTR_CODE": "HU", "NAME_LATN": "Észak-Magyarország", "NUTS_NAME": "Észak-Magyarország", "FID": "HU31", "tunit_code": "HU31", "TOTAL": 632.0 }, "geometry": { "type": "Point", "coordinates": [ 20.487656596172862, 48.047320685899493 ] } },
{ "type": "Feature", "properties": { "id": "ITC3", "NUTS_ID": "ITC3", "LEVL_CODE": 2, "CNTR_CODE": "IT", "NAME_LATN": "Liguria", "NUTS_NAME": "Liguria", "FID": "ITC3", "tunit_code": "ITC3", "TOTAL": 40.0 }, "geometry": { "type": "Point", "coordinates": [ 8.704321210186414, 44.264566250805231 ] } },
{ "type": "Feature", "properties": { "id": "ITC4", "NUTS_ID": "ITC4", "LEVL_CODE": 2, "CNTR_CODE": "IT", "NAME_LATN": "Lombardia", "NUTS_NAME": "Lombardia", "FID": "ITC4", "tunit_code": "ITC4", "TOTAL": 41.0 }, "geometry": { "type": "Point", "coordinates": [ 9.769336619121148, 45.620380238301799 ] } },
{ "type": "Feature", "properties": { "id": "FR23", "NUTS_ID": "FR23", "LEVL_CODE": 2, "CNTR_CODE": "FR", "NAME_LATN": "Haute-Normandie", "NUTS_NAME": "Haute-Normandie", "FID": "FR23", "tunit_code": "FR23", "TOTAL": 116.0 }, "geometry": { "type": "Point", "coordinates": [ 1.01158171393057, 49.391824533987737 ] } },
{ "type": "Feature", "properties": { "id": "BG32", "NUTS_ID": "BG32", "LEVL_CODE": 2, "CNTR_CODE": "BG", "NAME_LATN": "Severen tsentralen", "NUTS_NAME": "Северен централен", "FID": "BG32", "tunit_code": "BG32", "TOTAL": 0.0 }, "geometry": { "type": "Point", "coordinates": [ 26.078445974068824, 43.46752918978077 ] } },
{ "type": "Feature", "properties": { "id": "DEF0", "NUTS_ID": "DEF0", "LEVL_CODE": 2, "CNTR_CODE": "DE", "NAME_LATN": "Schleswig-Holstein", "NUTS_NAME": "Schleswig-Holstein", "FID": "DEF0", "tunit_code": "DEF0", "TOTAL": 290.0 }, "geometry": { "type": "Point", "coordinates": [ 9.814058801039689, 54.182441668294643 ] } },
{ "type": "Feature", "properties": { "id": "DK01", "NUTS_ID": "DK01", "LEVL_CODE": 2, "CNTR_CODE": "DK", "NAME_LATN": "Hovedstaden", "NUTS_NAME": "Hovedstaden", "FID": "DK01", "tunit_code": "DK01", "TOTAL": 343.0 }, "geometry": { "type": "Point", "coordinates": [ 12.889171174537278, 55.690877798439175 ] } },
{ "type": "Feature", "properties": { "id": "DK03", "NUTS_ID": "DK03", "LEVL_CODE": 2, "CNTR_CODE": "DK", "NAME_LATN": "Syddanmark", "NUTS_NAME": "Syddanmark", "FID": "DK03", "tunit_code": "DK03", "TOTAL": 860.0 }, "geometry": { "type": "Point", "coordinates": [ 9.446744274304242, 55.357174229231603 ] } },
{ "type": "Feature", "properties": { "id": "DE11", "NUTS_ID": "DE11", "LEVL_CODE": 2, "CNTR_CODE": "DE", "NAME_LATN": "Stuttgart", "NUTS_NAME": "Stuttgart", "FID": "DE11", "tunit_code": "DE11", "TOTAL": 100.0 }, "geometry": { "type": "Point", "coordinates": [ 9.625389760976605, 49.016266936773775 ] } },
{ "type": "Feature", "properties": { "id": "DK04", "NUTS_ID": "DK04", "LEVL_CODE": 2, "CNTR_CODE": "DK", "NAME_LATN": "Midtjylland", "NUTS_NAME": "Midtjylland", "FID": "DK04", "tunit_code": "DK04", "TOTAL": 375.0 }, "geometry": { "type": "Point", "coordinates": [ 9.395052045203926, 56.248338714152879 ] } },
{ "type": "Feature", "properties": { "id": "DK02", "NUTS_ID": "DK02", "LEVL_CODE": 2, "CNTR_CODE": "DK", "NAME_LATN": "Sjælland", "NUTS_NAME": "Sjælland", "FID": "DK02", "tunit_code": "DK02", "TOTAL": 827.0 }, "geometry": { "type": "Point", "coordinates": [ 11.702634525075503, 55.282434122621133 ] } },
{ "type": "Feature", "properties": { "id": "DK05", "NUTS_ID": "DK05", "LEVL_CODE": 2, "CNTR_CODE": "DK", "NAME_LATN": "Nordjylland", "NUTS_NAME": "Nordjylland", "FID": "DK05", "tunit_code": "DK05", "TOTAL": 740.0 }, "geometry": { "type": "Point", "coordinates": [ 9.673751784440984, 57.052848400035138 ] } },
{ "type": "Feature", "properties": { "id": "ES24", "NUTS_ID": "ES24", "LEVL_CODE": 2, "CNTR_CODE": "ES", "NAME_LATN": "Aragón", "NUTS_NAME": "Aragón", "FID": "ES24", "tunit_code": "ES24", "TOTAL": 350.0 }, "geometry": { "type": "Point", "coordinates": [ -0.659840498506292, 41.519405835192963 ] } },
{ "type": "Feature", "properties": { "id": "ES41", "NUTS_ID": "ES41", "LEVL_CODE": 2, "CNTR_CODE": "ES", "NAME_LATN": "Castilla y León", "NUTS_NAME": "Castilla y León", "FID": "ES41", "tunit_code": "ES41", "TOTAL": 861.0 }, "geometry": { "type": "Point", "coordinates": [ -4.7820507577527, 41.754224235603893 ] } },
{ "type": "Feature", "properties": { "id": "ES42", "NUTS_ID": "ES42", "LEVL_CODE": 2, "CNTR_CODE": "ES", "NAME_LATN": "Castilla-La Mancha", "NUTS_NAME": "Castilla-La Mancha", "FID": "ES42", "tunit_code": "ES42", "TOTAL": 0.0 }, "geometry": { "type": "Point", "coordinates": [ -3.004592320923697, 39.580960326092615 ] } },
{ "type": "Feature", "properties": { "id": "FI19", "NUTS_ID": "FI19", "LEVL_CODE": 2, "CNTR_CODE": "FI", "NAME_LATN": "Länsi-Suomi", "NUTS_NAME": "Länsi-Suomi", "FID": "FI19", "tunit_code": "FI19", "TOTAL": 240.0 }, "geometry": { "type": "Point", "coordinates": [ 23.705047920701027, 62.330362199395395 ] } },
{ "type": "Feature", "properties": { "id": "EL65", "NUTS_ID": "EL65", "LEVL_CODE": 2, "CNTR_CODE": "EL", "NAME_LATN": "Peloponnisos", "NUTS_NAME": "Πελοπόννησος", "FID": "EL65", "tunit_code": "EL65", "TOTAL": 210.0 }, "geometry": { "type": "Point", "coordinates": [ 22.458327731181068, 37.342668935549888 ] } },
{ "type": "Feature", "properties": { "id": "EL53", "NUTS_ID": "EL53", "LEVL_CODE": 2, "CNTR_CODE": "EL", "NAME_LATN": "Dytiki Makedonia", "NUTS_NAME": "Δυτική Μακεδονία", "FID": "EL53", "tunit_code": "EL53", "TOTAL": 1008.0 }, "geometry": { "type": "Point", "coordinates": [ 21.484110302687114, 40.361837801779743 ] } },
{ "type": "Feature", "properties": { "id": "ES11", "NUTS_ID": "ES11", "LEVL_CODE": 2, "CNTR_CODE": "ES", "NAME_LATN": "Galicia", "NUTS_NAME": "Galicia", "FID": "ES11", "tunit_code": "ES11", "TOTAL": 117.0 }, "geometry": { "type": "Point", "coordinates": [ -7.91006869479273, 42.75678464664766 ] } },
{ "type": "Feature", "properties": { "id": "ES61", "NUTS_ID": "ES61", "LEVL_CODE": 2, "CNTR_CODE": "ES", "NAME_LATN": "Andalucía", "NUTS_NAME": "Andalucía", "FID": "ES61", "tunit_code": "ES61", "TOTAL": 100.0 }, "geometry": { "type": "Point", "coordinates": [ -4.575378553489197, 37.463183719075658 ] } },
{ "type": "Feature", "properties": { "id": "FI1B", "NUTS_ID": "FI1B", "LEVL_CODE": 2, "CNTR_CODE": "FI", "NAME_LATN": "Helsinki-Uusimaa", "NUTS_NAME": "Helsinki-Uusimaa", "FID": "FI1B", "tunit_code": "FI1B", "TOTAL": 114.0 }, "geometry": { "type": "Point", "coordinates": [ 24.768976552873486, 60.367651837782752 ] } },
{ "type": "Feature", "properties": { "id": "ES12", "NUTS_ID": "ES12", "LEVL_CODE": 2, "CNTR_CODE": "ES", "NAME_LATN": "Principado de Asturias", "NUTS_NAME": "Principado de Asturias", "FID": "ES12", "tunit_code": "ES12", "TOTAL": 589.0 }, "geometry": { "type": "Point", "coordinates": [ -5.992845624809477, 43.29213930808136 ] } },
{ "type": "Feature", "properties": { "id": "BG33", "NUTS_ID": "BG33", "LEVL_CODE": 2, "CNTR_CODE": "BG", "NAME_LATN": "Severoiztochen", "NUTS_NAME": "Североизточен", "FID": "BG33", "tunit_code": "BG33", "TOTAL": 0.0 }, "geometry": { "type": "Point", "coordinates": [ 27.333110620994315, 43.370975325782773 ] } },
{ "type": "Feature", "properties": { "id": "BG34", "NUTS_ID": "BG34", "LEVL_CODE": 2, "CNTR_CODE": "BG", "NAME_LATN": "Yugoiztochen", "NUTS_NAME": "Югоизточен", "FID": "BG34", "tunit_code": "BG34", "TOTAL": 0.0 }, "geometry": { "type": "Point", "coordinates": [ 26.540868700387211, 42.471929766655087 ] } },
{ "type": "Feature", "properties": { "id": "DE12", "NUTS_ID": "DE12", "LEVL_CODE": 2, "CNTR_CODE": "DE", "NAME_LATN": "Karlsruhe", "NUTS_NAME": "Karlsruhe", "FID": "DE12", "tunit_code": "DE12", "TOTAL": 0.0 }, "geometry": { "type": "Point", "coordinates": [ 8.681178767045136, 49.022467572918785 ] } },
{ "type": "Feature", "properties": { "id": "DE80", "NUTS_ID": "DE80", "LEVL_CODE": 2, "CNTR_CODE": "DE", "NAME_LATN": "Mecklenburg-Vorpommern", "NUTS_NAME": "Mecklenburg-Vorpommern", "FID": "DE80", "tunit_code": "DE80", "TOTAL": 0.0 }, "geometry": { "type": "Point", "coordinates": [ 12.53508442810714, 53.753288453422179 ] } },
{ "type": "Feature", "properties": { "id": "DE91", "NUTS_ID": "DE91", "LEVL_CODE": 2, "CNTR_CODE": "DE", "NAME_LATN": "Braunschweig", "NUTS_NAME": "Braunschweig", "FID": "DE91", "tunit_code": "DE91", "TOTAL": 440.0 }, "geometry": { "type": "Point", "coordinates": [ 10.347250999200803, 52.03911101418997 ] } },
{ "type": "Feature", "properties": { "id": "DE92", "NUTS_ID": "DE92", "LEVL_CODE": 2, "CNTR_CODE": "DE", "NAME_LATN": "Hannover", "NUTS_NAME": "Hannover", "FID": "DE92", "tunit_code": "DE92", "TOTAL": 0.0 }, "geometry": { "type": "Point", "coordinates": [ 9.350774915780507, 52.395611293487313 ] } },
{ "type": "Feature", "properties": { "id": "BG41", "NUTS_ID": "BG41", "LEVL_CODE": 2, "CNTR_CODE": "BG", "NAME_LATN": "Yugozapaden", "NUTS_NAME": "Югозападен", "FID": "BG41", "tunit_code": "BG41", "TOTAL": 0.0 }, "geometry": { "type": "Point", "coordinates": [ 23.342953955846752, 42.317953925215932 ] } },
{ "type": "Feature", "properties": { "id": "BG42", "NUTS_ID": "BG42", "LEVL_CODE": 2, "CNTR_CODE": "BG", "NAME_LATN": "Yuzhen tsentralen", "NUTS_NAME": "Южен централен", "FID": "BG42", "tunit_code": "BG42", "TOTAL": 0.0 }, "geometry": { "type": "Point", "coordinates": [ 25.021502651851023, 41.940923720876697 ] } },
{ "type": "Feature", "properties": { "id": "DE21", "NUTS_ID": "DE21", "LEVL_CODE": 2, "CNTR_CODE": "DE", "NAME_LATN": "Oberbayern", "NUTS_NAME": "Oberbayern", "FID": "DE21", "tunit_code": "DE21", "TOTAL": 0.0 }, "geometry": { "type": "Point", "coordinates": [ 11.753746337632725, 48.10128735969846 ] } },
{ "type": "Feature", "properties": { "id": "DE94", "NUTS_ID": "DE94", "LEVL_CODE": 2, "CNTR_CODE": "DE", "NAME_LATN": "Weser-Ems", "NUTS_NAME": "Weser-Ems", "FID": "DE94", "tunit_code": "DE94", "TOTAL": 0.0 }, "geometry": { "type": "Point", "coordinates": [ 7.773833570888455, 52.942789448113146 ] } },
{ "type": "Feature", "properties": { "id": "DEA1", "NUTS_ID": "DEA1", "LEVL_CODE": 2, "CNTR_CODE": "DE", "NAME_LATN": "Düsseldorf", "NUTS_NAME": "Düsseldorf", "FID": "DEA1", "tunit_code": "DEA1", "TOTAL": 1856.0 }, "geometry": { "type": "Point", "coordinates": [ 6.596192193809616, 51.430155406882498 ] } },
{ "type": "Feature", "properties": { "id": "CZ02", "NUTS_ID": "CZ02", "LEVL_CODE": 2, "CNTR_CODE": "CZ", "NAME_LATN": "Strední Cechy", "NUTS_NAME": "Strední Cechy", "FID": "CZ02", "tunit_code": "CZ02", "TOTAL": 0.0 }, "geometry": { "type": "Point", "coordinates": [ 14.546911540284052, 49.998233635691221 ] } },
{ "type": "Feature", "properties": { "id": "DEA2", "NUTS_ID": "DEA2", "LEVL_CODE": 2, "CNTR_CODE": "DE", "NAME_LATN": "Köln", "NUTS_NAME": "Köln", "FID": "DEA2", "tunit_code": "DEA2", "TOTAL": 3070.0 }, "geometry": { "type": "Point", "coordinates": [ 6.809434708046456, 50.825048934305691 ] } },
{ "type": "Feature", "properties": { "id": "DEA3", "NUTS_ID": "DEA3", "LEVL_CODE": 2, "CNTR_CODE": "DE", "NAME_LATN": "Münster", "NUTS_NAME": "Münster", "FID": "DEA3", "tunit_code": "DEA3", "TOTAL": 370.0 }, "geometry": { "type": "Point", "coordinates": [ 7.416474946647615, 51.950660141953968 ] } },
{ "type": "Feature", "properties": { "id": "DEA4", "NUTS_ID": "DEA4", "LEVL_CODE": 2, "CNTR_CODE": "DE", "NAME_LATN": "Detmold", "NUTS_NAME": "Detmold", "FID": "DEA4", "tunit_code": "DEA4", "TOTAL": 0.0 }, "geometry": { "type": "Point", "coordinates": [ 8.784243896431175, 51.939839773915402 ] } },
{ "type": "Feature", "properties": { "id": "AT12", "NUTS_ID": "AT12", "LEVL_CODE": 2, "CNTR_CODE": "AT", "NAME_LATN": "Niederösterreich", "NUTS_NAME": "Niederösterreich", "FID": "AT12", "tunit_code": "AT12", "TOTAL": 236.0 }, "geometry": { "type": "Point", "coordinates": [ 15.751958264553013, 48.272162858053882 ] } },
{ "type": "Feature", "properties": { "id": "CZ03", "NUTS_ID": "CZ03", "LEVL_CODE": 2, "CNTR_CODE": "CZ", "NAME_LATN": "Jihozápad", "NUTS_NAME": "Jihozápad", "FID": "CZ03", "tunit_code": "CZ03", "TOTAL": 111.0 }, "geometry": { "type": "Point", "coordinates": [ 13.910077601495598, 49.310388042493244 ] } },
{ "type": "Feature", "properties": { "id": "CZ04", "NUTS_ID": "CZ04", "LEVL_CODE": 2, "CNTR_CODE": "CZ", "NAME_LATN": "Severozápad", "NUTS_NAME": "Severozápad", "FID": "CZ04", "tunit_code": "CZ04", "TOTAL": 192.0 }, "geometry": { "type": "Point", "coordinates": [ 13.429287682191324, 50.394522521442987 ] } },
{ "type": "Feature", "properties": { "id": "DEA5", "NUTS_ID": "DEA5", "LEVL_CODE": 2, "CNTR_CODE": "DE", "NAME_LATN": "Arnsberg", "NUTS_NAME": "Arnsberg", "FID": "DEA5", "tunit_code": "DEA5", "TOTAL": 800.0 }, "geometry": { "type": "Point", "coordinates": [ 8.006406191652303, 51.316056890778469 ] } },
{ "type": "Feature", "properties": { "id": "AT22", "NUTS_ID": "AT22", "LEVL_CODE": 2, "CNTR_CODE": "AT", "NAME_LATN": "Steiermark", "NUTS_NAME": "Steiermark", "FID": "AT22", "tunit_code": "AT22", "TOTAL": 132.0 }, "geometry": { "type": "Point", "coordinates": [ 15.011451896328674, 47.269109553724263 ] } },
{ "type": "Feature", "properties": { "id": "AT31", "NUTS_ID": "AT31", "LEVL_CODE": 2, "CNTR_CODE": "AT", "NAME_LATN": "Oberösterreich", "NUTS_NAME": "Oberösterreich", "FID": "AT31", "tunit_code": "AT31", "TOTAL": 90.0 }, "geometry": { "type": "Point", "coordinates": [ 13.965513774168222, 48.136953697457969 ] } },
{ "type": "Feature", "properties": { "id": "CZ05", "NUTS_ID": "CZ05", "LEVL_CODE": 2, "CNTR_CODE": "CZ", "NAME_LATN": "Severovýchod", "NUTS_NAME": "Severovýchod", "FID": "CZ05", "tunit_code": "CZ05", "TOTAL": 200.0 }, "geometry": { "type": "Point", "coordinates": [ 15.760714150056454, 50.292484247802228 ] } },
{ "type": "Feature", "properties": { "id": "DE30", "NUTS_ID": "DE30", "LEVL_CODE": 2, "CNTR_CODE": "DE", "NAME_LATN": "Berlin", "NUTS_NAME": "Berlin", "FID": "DE30", "tunit_code": "DE30", "TOTAL": 834.0 }, "geometry": { "type": "Point", "coordinates": [ 13.401000094315256, 52.50141660960692 ] } },
{ "type": "Feature", "properties": { "id": "DE50", "NUTS_ID": "DE50", "LEVL_CODE": 2, "CNTR_CODE": "DE", "NAME_LATN": "Bremen", "NUTS_NAME": "Bremen", "FID": "DE50", "tunit_code": "DE50", "TOTAL": 0.0 }, "geometry": { "type": "Point", "coordinates": [ 8.735724584391077, 53.212012969508947 ] } },
{ "type": "Feature", "properties": { "id": "DE60", "NUTS_ID": "DE60", "LEVL_CODE": 2, "CNTR_CODE": "DE", "NAME_LATN": "Hamburg", "NUTS_NAME": "Hamburg", "FID": "DE60", "tunit_code": "DE60", "TOTAL": 180.0 }, "geometry": { "type": "Point", "coordinates": [ 10.018512363864867, 53.545684424492208 ] } },
{ "type": "Feature", "properties": { "id": "DEC0", "NUTS_ID": "DEC0", "LEVL_CODE": 2, "CNTR_CODE": "DE", "NAME_LATN": "Saarland", "NUTS_NAME": "Saarland", "FID": "DEC0", "tunit_code": "DEC0", "TOTAL": 524.0 }, "geometry": { "type": "Point", "coordinates": [ 6.952866979642363, 49.38479817032978 ] } },
{ "type": "Feature", "properties": { "id": "DED2", "NUTS_ID": "DED2", "LEVL_CODE": 2, "CNTR_CODE": "DE", "NAME_LATN": "Dresden", "NUTS_NAME": "Dresden", "FID": "DED2", "tunit_code": "DED2", "TOTAL": 0.0 }, "geometry": { "type": "Point", "coordinates": [ 14.140009388034784, 51.170590429095334 ] } },
{ "type": "Feature", "properties": { "id": "CZ08", "NUTS_ID": "CZ08", "LEVL_CODE": 2, "CNTR_CODE": "CZ", "NAME_LATN": "Moravskoslezsko", "NUTS_NAME": "Moravskoslezsko", "FID": "CZ08", "tunit_code": "CZ08", "TOTAL": 0.0 }, "geometry": { "type": "Point", "coordinates": [ 17.979375710161442, 49.820470519347495 ] } },
{ "type": "Feature", "properties": { "id": "DE40", "NUTS_ID": "DE40", "LEVL_CODE": 2, "CNTR_CODE": "DE", "NAME_LATN": "Brandenburg", "NUTS_NAME": "Brandenburg", "FID": "DE40", "tunit_code": "DE40", "TOTAL": 3000.0 }, "geometry": { "type": "Point", "coordinates": [ 13.397672637702682, 52.472650463722097 ] } },
{ "type": "Feature", "properties": { "id": "DE71", "NUTS_ID": "DE71", "LEVL_CODE": 2, "CNTR_CODE": "DE", "NAME_LATN": "Darmstadt", "NUTS_NAME": "Darmstadt", "FID": "DE71", "tunit_code": "DE71", "TOTAL": 0.0 }, "geometry": { "type": "Point", "coordinates": [ 8.758610635291173, 50.058370095289014 ] } },
{ "type": "Feature", "properties": { "id": "DED5", "NUTS_ID": "DED5", "LEVL_CODE": 2, "CNTR_CODE": "DE", "NAME_LATN": "Leipzig", "NUTS_NAME": "Leipzig", "FID": "DED5", "tunit_code": "DED5", "TOTAL": 0.0 }, "geometry": { "type": "Point", "coordinates": [ 12.674421637456764, 51.35889821729743 ] } },
{ "type": "Feature", "properties": { "id": "DEE0", "NUTS_ID": "DEE0", "LEVL_CODE": 2, "CNTR_CODE": "DE", "NAME_LATN": "Sachsen-Anhalt", "NUTS_NAME": "Sachsen-Anhalt", "FID": "DEE0", "tunit_code": "DEE0", "TOTAL": 960.0 }, "geometry": { "type": "Point", "coordinates": [ 11.70056437003332, 52.013616983755142 ] } },
{ "type": "Feature", "properties": { "id": "PT18", "NUTS_ID": "PT18", "LEVL_CODE": 2, "CNTR_CODE": "PT", "NAME_LATN": "Alentejo", "NUTS_NAME": "Alentejo", "FID": "PT18", "tunit_code": "PT18", "TOTAL": 936.0 }, "geometry": { "type": "Point", "coordinates": [ -8.0143024306626, 38.490825382329945 ] } },
{ "type": "Feature", "properties": { "id": "SI03", "NUTS_ID": "SI03", "LEVL_CODE": 2, "CNTR_CODE": "SI", "NAME_LATN": "Vzhodna Slovenija", "NUTS_NAME": "Vzhodna Slovenija", "FID": "SI03", "tunit_code": "SI03", "TOTAL": 820.0 }, "geometry": { "type": "Point", "coordinates": [ 15.260284055417692, 46.152261930203828 ] } },
{ "type": "Feature", "properties": { "id": "SK02", "NUTS_ID": "SK02", "LEVL_CODE": 2, "CNTR_CODE": "SK", "NAME_LATN": "Západné Slovensko", "NUTS_NAME": "Západné Slovensko", "FID": "SK02", "tunit_code": "SK02", "TOTAL": 133.0 }, "geometry": { "type": "Point", "coordinates": [ 18.066823397723077, 48.417364157320122 ] } },
{ "type": "Feature", "properties": { "id": "SK04", "NUTS_ID": "SK04", "LEVL_CODE": 2, "CNTR_CODE": "SK", "NAME_LATN": "Východné Slovensko", "NUTS_NAME": "Východné Slovensko", "FID": "SK04", "tunit_code": "SK04", "TOTAL": 0.0 }, "geometry": { "type": "Point", "coordinates": [ 21.242357091111217, 48.941672807869857 ] } },
{ "type": "Feature", "properties": { "id": "UKC2", "NUTS_ID": "UKC2", "LEVL_CODE": 2, "CNTR_CODE": "UK", "NAME_LATN": "Northumberland and Tyne and Wear", "NUTS_NAME": "Northumberland and Tyne and Wear", "FID": "UKC2", "tunit_code": "UKC2", "TOTAL": 420.0 }, "geometry": { "type": "Point", "coordinates": [ -2.018986247554602, 55.211707981984809 ] } },
{ "type": "Feature", "properties": { "id": "UKD6", "NUTS_ID": "UKD6", "LEVL_CODE": 2, "CNTR_CODE": "UK", "NAME_LATN": "Cheshire", "NUTS_NAME": "Cheshire", "FID": "UKD6", "tunit_code": "UKD6", "TOTAL": 2000.0 }, "geometry": { "type": "Point", "coordinates": [ -2.520902674488269, 53.204861830487687 ] } },
{ "type": "Feature", "properties": { "id": "UKE2", "NUTS_ID": "UKE2", "LEVL_CODE": 2, "CNTR_CODE": "UK", "NAME_LATN": "North Yorkshire", "NUTS_NAME": "North Yorkshire", "FID": "UKE2", "tunit_code": "UKE2", "TOTAL": 1500.0 }, "geometry": { "type": "Point", "coordinates": [ -1.407902463922404, 54.182756465324196 ] } },
{ "type": "Feature", "properties": { "id": "UKE4", "NUTS_ID": "UKE4", "LEVL_CODE": 2, "CNTR_CODE": "UK", "NAME_LATN": "West Yorkshire", "NUTS_NAME": "West Yorkshire", "FID": "UKE4", "tunit_code": "UKE4", "TOTAL": 500.0 }, "geometry": { "type": "Point", "coordinates": [ -1.68885250332125, 53.743184734473559 ] } },
{ "type": "Feature", "properties": { "id": "UKF1", "NUTS_ID": "UKF1", "LEVL_CODE": 2, "CNTR_CODE": "UK", "NAME_LATN": "Derbyshire and Nottinghamshire", "NUTS_NAME": "Derbyshire and Nottinghamshire", "FID": "UKF1", "tunit_code": "UKF1", "TOTAL": 4943.0 }, "geometry": { "type": "Point", "coordinates": [ -1.340802477623561, 53.131937436388135 ] } },
{ "type": "Feature", "properties": { "id": "UKG2", "NUTS_ID": "UKG2", "LEVL_CODE": 2, "CNTR_CODE": "UK", "NAME_LATN": "Shropshire and Staffordshire", "NUTS_NAME": "Shropshire and Staffordshire", "FID": "UKG2", "tunit_code": "UKG2", "TOTAL": 500.0 }, "geometry": { "type": "Point", "coordinates": [ -2.416234480499994, 52.737508392327996 ] } },
{ "type": "Feature", "properties": { "id": "UKN0", "NUTS_ID": "UKN0", "LEVL_CODE": 2, "CNTR_CODE": "UK", "NAME_LATN": "Northern Ireland", "NUTS_NAME": "Northern Ireland", "FID": "UKN0", "tunit_code": "UKN0", "TOTAL": 520.0 }, "geometry": { "type": "Point", "coordinates": [ -6.694205219102985, 54.609647396200799 ] } },
{ "type": "Feature", "properties": { "id": "UKL2", "NUTS_ID": "UKL2", "LEVL_CODE": 2, "CNTR_CODE": "UK", "NAME_LATN": "East Wales", "NUTS_NAME": "East Wales", "FID": "UKL2", "tunit_code": "UKL2", "TOTAL": 500.0 }, "geometry": { "type": "Point", "coordinates": [ -3.294462519993779, 52.290146341097568 ] } },
{ "type": "Feature", "properties": { "id": "PL33", "NUTS_ID": "PL33", "LEVL_CODE": 2, "CNTR_CODE": "PL", "NAME_LATN": "Swietokrzyskie", "NUTS_NAME": "Swietokrzyskie", "FID": "PL33", "tunit_code": "PL33", "TOTAL": 0.0 }, "geometry": { "type": "Point", "coordinates": [ 20.768689357447894, 50.763259026557243 ] } },
{ "type": "Feature", "properties": { "id": "PL34", "NUTS_ID": "PL34", "LEVL_CODE": 2, "CNTR_CODE": "PL", "NAME_LATN": "Podlaskie", "NUTS_NAME": "Podlaskie", "FID": "PL34", "tunit_code": "PL34", "TOTAL": 0.0 }, "geometry": { "type": "Point", "coordinates": [ 22.928901659909478, 53.264325023409867 ] } },
{ "type": "Feature", "properties": { "id": "RO11", "NUTS_ID": "RO11", "LEVL_CODE": 2, "CNTR_CODE": "RO", "NAME_LATN": "Nord-Vest", "NUTS_NAME": "Nord-Vest", "FID": "RO11", "tunit_code": "RO11", "TOTAL": 145.0 }, "geometry": { "type": "Point", "coordinates": [ 23.349218286025504, 47.225841951261103 ] } },
{ "type": "Feature", "properties": { "id": "PL41", "NUTS_ID": "PL41", "LEVL_CODE": 2, "CNTR_CODE": "PL", "NAME_LATN": "Wielkopolskie", "NUTS_NAME": "Wielkopolskie", "FID": "PL41", "tunit_code": "PL41", "TOTAL": 1461.0 }, "geometry": { "type": "Point", "coordinates": [ 17.242604422054921, 52.330681304030151 ] } },
{ "type": "Feature", "properties": { "id": "RO21", "NUTS_ID": "RO21", "LEVL_CODE": 2, "CNTR_CODE": "RO", "NAME_LATN": "Nord-Est", "NUTS_NAME": "Nord-Est", "FID": "RO21", "tunit_code": "RO21", "TOTAL": 0.0 }, "geometry": { "type": "Point", "coordinates": [ 26.685397108818741, 47.101512484442189 ] } },
{ "type": "Feature", "properties": { "id": "PL42", "NUTS_ID": "PL42", "LEVL_CODE": 2, "CNTR_CODE": "PL", "NAME_LATN": "Zachodniopomorskie", "NUTS_NAME": "Zachodniopomorskie", "FID": "PL42", "tunit_code": "PL42", "TOTAL": 134.0 }, "geometry": { "type": "Point", "coordinates": [ 15.564800547823099, 53.58109832678339 ] } },
{ "type": "Feature", "properties": { "id": "PL51", "NUTS_ID": "PL51", "LEVL_CODE": 2, "CNTR_CODE": "PL", "NAME_LATN": "Dolnoslaskie", "NUTS_NAME": "Dolnoslaskie", "FID": "PL51", "tunit_code": "PL51", "TOTAL": 1399.0 }, "geometry": { "type": "Point", "coordinates": [ 16.410497014573764, 51.089566741043186 ] } },
{ "type": "Feature", "properties": { "id": "PL52", "NUTS_ID": "PL52", "LEVL_CODE": 2, "CNTR_CODE": "PL", "NAME_LATN": "Opolskie", "NUTS_NAME": "Opolskie", "FID": "PL52", "tunit_code": "PL52", "TOTAL": 0.0 }, "geometry": { "type": "Point", "coordinates": [ 17.899837469755489, 50.646862020204075 ] } },
{ "type": "Feature", "properties": { "id": "RO31", "NUTS_ID": "RO31", "LEVL_CODE": 2, "CNTR_CODE": "RO", "NAME_LATN": "Sud - Muntenia", "NUTS_NAME": "Sud - Muntenia", "FID": "RO31", "tunit_code": "RO31", "TOTAL": 150.0 }, "geometry": { "type": "Point", "coordinates": [ 25.88668427450505, 44.609850203576293 ] } },
{ "type": "Feature", "properties": { "id": "PL11", "NUTS_ID": "PL11", "LEVL_CODE": 2, "CNTR_CODE": "PL", "NAME_LATN": "Lódzkie", "NUTS_NAME": "Lódzkie", "FID": "PL11", "tunit_code": "PL11", "TOTAL": 198.0 }, "geometry": { "type": "Point", "coordinates": [ 19.417543523152354, 51.604809287753994 ] } },
{ "type": "Feature", "properties": { "id": "PL61", "NUTS_ID": "PL61", "LEVL_CODE": 2, "CNTR_CODE": "PL", "NAME_LATN": "Kujawsko-Pomorskie", "NUTS_NAME": "Kujawsko-Pomorskie", "FID": "PL61", "tunit_code": "PL61", "TOTAL": 100.0 }, "geometry": { "type": "Point", "coordinates": [ 18.48767012456214, 53.072557679192691 ] } },
{ "type": "Feature", "properties": { "id": "RO41", "NUTS_ID": "RO41", "LEVL_CODE": 2, "CNTR_CODE": "RO", "NAME_LATN": "Sud-Vest Oltenia", "NUTS_NAME": "Sud-Vest Oltenia", "FID": "RO41", "tunit_code": "RO41", "TOTAL": 450.0 }, "geometry": { "type": "Point", "coordinates": [ 23.669634827344598, 44.59694736153282 ] } },
{ "type": "Feature", "properties": { "id": "RO42", "NUTS_ID": "RO42", "LEVL_CODE": 2, "CNTR_CODE": "RO", "NAME_LATN": "Vest", "NUTS_NAME": "Vest", "FID": "RO42", "tunit_code": "RO42", "TOTAL": 788.0 }, "geometry": { "type": "Point", "coordinates": [ 21.988911525065074, 45.718695171347534 ] } },
{ "type": "Feature", "properties": { "id": "PL12", "NUTS_ID": "PL12", "LEVL_CODE": 2, "CNTR_CODE": "PL", "NAME_LATN": "Mazowieckie", "NUTS_NAME": "Mazowieckie", "FID": "PL12", "tunit_code": "PL12", "TOTAL": 2168.0 }, "geometry": { "type": "Point", "coordinates": [ 21.096180927702395, 52.345488819170647 ] } },
{ "type": "Feature", "properties": { "id": "PL63", "NUTS_ID": "PL63", "LEVL_CODE": 2, "CNTR_CODE": "PL", "NAME_LATN": "Pomorskie", "NUTS_NAME": "Pomorskie", "FID": "PL63", "tunit_code": "PL63", "TOTAL": 105.0 }, "geometry": { "type": "Point", "coordinates": [ 17.975367025188522, 54.152375185429889 ] } },
{ "type": "Feature", "properties": { "id": "PL21", "NUTS_ID": "PL21", "LEVL_CODE": 2, "CNTR_CODE": "PL", "NAME_LATN": "Malopolskie", "NUTS_NAME": "Malopolskie", "FID": "PL21", "tunit_code": "PL21", "TOTAL": 1214.0 }, "geometry": { "type": "Point", "coordinates": [ 20.268919991215366, 49.858939635646244 ] } },
{ "type": "Feature", "properties": { "id": "PL22", "NUTS_ID": "PL22", "LEVL_CODE": 2, "CNTR_CODE": "PL", "NAME_LATN": "Slaskie", "NUTS_NAME": "Slaskie", "FID": "PL22", "tunit_code": "PL22", "TOTAL": 1746.0 }, "geometry": { "type": "Point", "coordinates": [ 18.993892408370268, 50.331070314247633 ] } },
{ "type": "Feature", "properties": { "id": "PT16", "NUTS_ID": "PT16", "LEVL_CODE": 2, "CNTR_CODE": "PT", "NAME_LATN": "Centro (PT)", "NUTS_NAME": "Centro (PT)", "FID": "PT16", "tunit_code": "PT16", "TOTAL": 628.0 }, "geometry": { "type": "Point", "coordinates": [ -7.993217281299517, 40.134019645556634 ] } },
{ "type": "Feature", "properties": { "id": "SE11", "NUTS_ID": "SE11", "LEVL_CODE": 2, "CNTR_CODE": "SE", "NAME_LATN": "Stockholm", "NUTS_NAME": "Stockholm", "FID": "SE11", "tunit_code": "SE11", "TOTAL": 114.0 }, "geometry": { "type": "Point", "coordinates": [ 18.148305654443885, 59.472684963726927 ] } },
{ "type": "Feature", "properties": { "id": "UKM2", "NUTS_ID": "UKM2", "LEVL_CODE": 2, "CNTR_CODE": "UK", "NAME_LATN": "Eastern Scotland", "NUTS_NAME": "Eastern Scotland", "FID": "UKM2", "tunit_code": "UKM2", "TOTAL": 1800.0 }, "geometry": { "type": "Point", "coordinates": [ -3.387359218965144, 56.190195929770695 ] } }
]
}
